City,Country,Date,Humidity,Lat,Lng,Max Temp,Wind Speed
Paredon,MX,1584366220,59,16.03,-93.87,85.55,17.69
Puerto Ayora,EC,1584366222,88,-0.74,-90.35,80.01,4.7
Creel,MX,1584366224,57,27.75,-107.63,53.33,3.85
San Cristobal,VE,1584366247,83,7.77,-72.22,75.2,2.24
Coahuayana Viejo,MX,1584366249,88,18.73,-103.68,69.8,2.59
Acapulco de Juárez,MX,1584366251,88,16.86,-99.89,75.2,1.36
San Jerónimo,PE,1584366254,68,-11.95,-75.28,50.63,4.16
Celestún,MX,1584366256,81,20.87,-90.4,75.65,9.04
Ocampo,MX,1584366258,75,21.65,-101.5,57.65,2.77
Esmeraldas,BR,1584366260,61,-19.76,-44.31,77.0,5.82
Salinas,US,1584366255,100,36.68,-121.66,46.99,9.66
Rodeo,US,1584366264,100,38.03,-122.27,45.0,6.93
Nombre de Dios,MX,1584366266,61,23.85,-104.23,57.0,2.82
Houma,US,1584366270,94,29.6,-90.72,68.0,6.6
Acajutla,SV,1584366272,60,13.59,-89.83,73.4,3.36
Bahía Honda,CU,1584366274,67,22.9,-83.16,77.63,11.74
Edgewater,US,1584366276,71,28.99,-80.9,73.99,9.17
San Patricio,MX,1584366278,78,19.22,-104.7,77.09,2.68
Hopelchén,MX,1584366282,88,19.77,-89.85,71.6,6.04
Rockport,US,1584366284,94,28.02,-97.05,72.0,11.41
Savannah Bight,HN,1584366286,78,16.45,-85.85,79.07,14.61
Ciudad de Armería,MX,1584366288,88,18.93,-103.97,69.8,1.99
Freeport,US,1584366012,34,40.66,-73.58,37.99,11.41
Puerto Escondido,MX,1584366292,88,15.85,-97.07,75.2,8.05
Barra de Tecoanapa,MX,1584366295,47,16.52,-98.75,86.45,1.7
Isla Mujeres,MX,1584366297,74,21.23,-86.73,78.8,4.7
Bonanza,NI,1584366299,79,14.03,-84.59,76.73,3.11
Sayaxché,GT,1584366301,67,16.52,-90.17,79.07,0.2
El Alto,PE,1584366202,100,-4.27,-81.21,62.6,11.41
Ixtapa,MX,1584366305,93,20.7,-105.2,70.0,3.58
Naples,IT,1584366245,36,40.83,14.25,68.0,6.93
Salamá,HN,1584366309,54,14.83,-86.58,74.75,2.37
Iralaya,HN,1584366311,75,15.0,-83.23,79.79,15.88
Agua Verde,MX,1584366314,93,22.9,-106.05,69.01,2.39
Camargo,MX,1584366316,62,27.67,-105.17,67.01,13.29
San Agustín Acasaguastlán,GT,1584366318,55,14.95,-89.97,74.21,0.83
Progreso,MX,1584366320,88,21.28,-89.67,73.4,8.05
Lake Wales,US,1584366322,94,27.9,-81.59,75.0,4.7
Mundo Nuevo (Ojo de Agua),MX,1584366324,69,18.7,-95.5,75.83,3.27
Mosquera,CO,1584366147,78,4.71,-74.23,59.99,1.34
Santa Barbara,US,1584366328,100,34.42,-119.7,57.2,6.93
Chalchihuites,MX,1584366331,43,23.48,-103.88,61.43,2.8
San Andrés,CO,1584366330,69,12.58,-81.7,82.4,9.17
Lázaro Cárdenas,MX,1584366335,61,17.96,-102.2,81.41,2.17
Manta,EC,1584366337,88,-0.95,-80.73,78.8,1.12
Tlacotepec (San Mateo),MX,1584366339,93,20.07,-97.87,56.93,2.48
Puerto Madero,MX,1584366341,83,14.72,-92.42,71.6,5.82
Nicoya,CR,1584366343,51,10.15,-85.45,84.2,19.46
Ayotzintepec,MX,1584366345,72,17.67,-96.13,71.15,2.51
Nuevo Progreso,MX,1584366348,97,23.17,-97.95,70.0,1.01
Seminole,US,1584366350,78,28.71,-81.21,75.0,8.05
Portobelo,PA,1584366352,61,9.55,-79.65,82.4,6.93
Pochutla,MX,1584366354,73,15.74,-96.47,75.2,2.28
San Pedro Buenavista,MX,1584366356,82,16.08,-93.12,68.0,2.24
Bodden Town,KY,1584366358,74,19.28,-81.25,80.6,13.87
George Town,MY,1584366360,74,5.41,100.34,87.8,5.82
Mapimí,MX,1584366362,68,25.82,-103.85,68.0,8.05
San Ciro de Acosta,MX,1584366364,84,21.63,-99.82,62.33,2.84
Eldorado,BR,1584366367,39,-23.79,-54.28,95.81,3.33
Venice,US,1584366186,100,27.1,-82.45,73.99,4.7
Ciudad del Carmen,MX,1584366371,78,18.63,-91.83,77.0,13.87
Parrita,CR,1584366373,77,9.52,-84.32,69.8,19.46
San Jose,US,1584366280,87,37.34,-121.89,46.4,6.93
Agua Buena,PA,1584366377,58,7.82,-80.4,84.2,11.41
Felipe Carrillo Puerto,MX,1584366379,56,19.58,-88.05,82.85,7.16
Tres Picos,MX,1584366381,54,15.87,-93.53,77.81,6.42
Mocorito,MX,1584366384,40,25.48,-107.92,70.79,1.9
Matamoros,MX,1584366386,68,25.53,-103.25,68.0,4.16
St. Pete Beach,US,1584366388,83,27.73,-82.74,75.0,5.82
Aransas Pass,US,1584366390,94,27.91,-97.15,71.6,11.41
Paraíso,CR,1584366392,77,9.84,-83.87,69.8,19.46
Puerto Baquerizo Moreno,EC,1584366416,88,-0.9,-89.6,75.2,2.24
Barra Patuca,HN,1584366418,77,15.8,-84.28,79.43,17.74
Champerico,GT,1584366421,78,14.3,-91.92,73.4,1.5
Weston,US,1584366423,78,26.1,-80.4,79.0,9.98
Muisne,EC,1584366425,100,0.6,-80.03,75.2,3.36
Jiquilpan,MX,1584366449,88,19.78,-103.78,69.8,1.92
La Palma,US,1584366451,81,33.85,-118.05,57.2,3.36
San Fernando,PH,1584366453,69,15.03,120.69,81.0,2.24
Buenos Aires,AR,1584366177,68,-34.61,-58.38,72.0,8.05
Vega de Alatorre,MX,1584366457,83,20.03,-96.63,75.65,7.56
Manzanillo,CU,1584366461,50,20.34,-77.12,82.31,13.47
Hidalgotitlán,MX,1584366463,94,17.78,-94.63,71.6,4.41
Warrington,GB,1584366465,53,53.39,-2.58,55.0,11.41
Linares,CL,1584366467,21,-35.85,-71.6,73.85,4.0
Corralillo,CU,1584366469,71,22.98,-80.59,76.37,17.94
Chiriquí Grande,PA,1584366471,60,8.95,-82.12,66.99,10.0
Bacalar,MX,1584366473,94,18.67,-88.38,71.6,6.08
Santa Fe,AR,1584366475,68,-31.63,-60.7,75.99,4.0
Barberena,GT,1584366478,87,14.31,-90.36,71.6,13.87
Bucerías,MX,1584366480,93,20.75,-105.33,70.0,4.41
Pueblo Nuevo,MX,1584366482,29,23.38,-105.38,68.27,1.66
Sain Alto,MX,1584366484,66,23.58,-103.25,60.35,4.47
Durango,MX,1584366486,46,24.83,-104.83,60.89,4.25
Abbeville,FR,1584366488,76,50.1,1.83,51.8,8.05
Huejuquilla el Alto,MX,1584366490,58,22.6,-103.87,64.85,2.57
Panabá,MX,1584366492,62,21.28,-88.27,81.77,7.2
Santa Cruz de la Sierra,BO,1584366482,100,-17.8,-63.17,75.2,8.05
Valle de Allende,MX,1584366497,39,26.93,-105.4,66.65,10.87
Mariel,CU,1584366284,100,22.99,-82.75,68.0,12.57
Alice,US,1584366501,94,27.75,-98.07,73.4,3.36
Morgan City,US,1584366503,88,29.7,-91.21,68.0,5.73
Dzilam González,MX,1584366505,82,21.28,-88.93,76.37,12.28
Paita,PE,1584366507,100,-5.09,-81.11,62.6,11.41
West Bay,KY,1584366408,74,19.37,-81.42,80.6,13.87
Laguna de Perlas,NI,1584366512,88,12.34,-83.67,77.0,4.7
Lüshunkou,CN,1584366515,65,38.8,121.27,41.0,2.24
Santa Engracia,ES,1584366517,93,41.94,-1.32,42.8,5.82
La Libertad,EC,1584366519,78,-2.23,-80.9,80.6,4.7
Santa María Zolotepec,MX,1584366521,87,19.42,-99.49,66.2,3.11
Teacapan,MX,1584366523,69,22.55,-105.75,74.75,0.54
Tarimoro,MX,1584366525,100,20.28,-100.75,55.4,3.8
Matehuala,MX,1584366527,62,23.65,-100.65,60.89,1.52
Corinth,GR,1584366530,40,37.94,22.96,53.6,20.8
Tetiz,MX,1584366532,88,20.97,-89.93,77.0,8.05
Sandy Bay,AU,1584366534,76,-42.91,147.35,55.4,8.05
Valle Hermoso,MX,1584366536,88,25.67,-97.83,73.4,5.82
Adolfo López Mateos,MX,1584366538,51,28.47,-107.3,52.43,5.17
Province of Mantua,IT,1584366540,44,45.17,10.78,63.0,5.82
Petatlán,MX,1584366543,83,17.52,-101.27,71.6,4.47
Puerto Armuelles,PA,1584366545,42,8.28,-82.87,86.0,12.75
San Sebastián Etla,MX,1584366547,71,17.06,-96.79,57.2,8.05
Tamiahua,MX,1584366549,89,21.27,-97.45,72.95,4.54
Mier,MX,1584366551,83,26.43,-99.15,73.4,4.7
La Esperanza,GT,1584366553,78,14.87,-91.57,73.4,4.12
Raymondville,US,1584366555,94,26.48,-97.78,75.0,4.7
South Venice,US,1584366557,100,27.05,-82.42,75.99,4.7
Tomatlán,MX,1584366559,66,19.93,-105.25,75.29,2.46
Siuna,NI,1584366562,63,13.73,-84.78,79.43,5.39
Catemaco,MX,1584366564,94,18.42,-95.12,71.6,0.54
El Rosario,MX,1584366566,87,24.26,-107.18,62.01,1.34
San Miguel de Cozumel,MX,1584366568,100,20.51,-86.95,79.0,5.82
Auka,HN,1584366570,77,14.93,-83.83,79.43,6.33
Panama City,PA,1584366549,74,8.99,-79.52,84.0,11.41
Ocós,GT,1584366574,78,14.51,-92.19,73.4,1.5
Piedras Negras,MX,1584366576,76,28.7,-100.52,70.07,12.39
Marathon,US,1584366578,86,44.9,-89.77,28.99,6.93
Apopka,US,1584366581,78,28.68,-81.51,75.0,8.05
Ciudad Darío,NI,1584366583,88,12.73,-86.12,77.0,13.56
Nueva Rosita,MX,1584366585,86,27.95,-101.22,66.65,14.47
Chone,EC,1584366587,90,-0.68,-80.1,74.57,1.59
Pascagoula,US,1584366407,100,30.37,-88.56,63.0,8.05
Iztapa,GT,1584366591,94,13.93,-90.71,71.6,2.19
Unión de Reyes,CU,1584366593,83,22.8,-81.54,71.6,2.24
Concepción del Oro,MX,1584366595,65,24.63,-101.42,58.91,8.39
Wiwilí,NI,1584366598,88,13.63,-85.83,62.6,5.68
Guaymitas,HN,1584366600,88,15.5,-87.71,81.0,1.21
Rio Grande,BR,1584366320,69,-32.03,-52.1,75.2,10.29
Bisira,PA,1584366604,66,8.52,-81.71,73.31,13.4
Bartow,US,1584366606,94,27.9,-81.84,75.0,3.36
Escárcega,MX,1584366608,63,18.61,-90.75,79.61,4.9
Talara,PE,1584366610,100,-4.58,-81.27,62.6,11.41
Galveston,US,1584366393,100,29.37,-94.97,68.0,4.7
Mazatlán,MX,1584366614,93,23.22,-106.42,69.01,3.44
Miramar,US,1584366617,78,25.99,-80.23,80.01,13.13
Lanquín,GT,1584366619,90,15.57,-89.97,64.13,0.49
Veracruz,MX,1584366621,94,19.33,-96.67,73.99,3.36
City of San Pedro,PH,1584366255,69,14.35,121.02,81.0,9.17
San Juan del Sur,NI,1584366625,83,11.25,-85.87,77.0,9.17
Miguel Auza,MX,1584366627,63,24.29,-103.45,62.87,1.01
Copalillo,MX,1584366629,67,18.03,-99.12,71.01,0.85
La Reforma,MX,1584366632,87,25.08,-108.05,60.8,5.82
Zacualpan,MX,1584366634,87,21.25,-105.17,71.01,4.41
Tallahassee,US,1584366343,88,30.44,-84.28,69.01,4.7
Bay City,US,1584366638,79,43.59,-83.89,32.0,6.42
Springfield,US,1584366343,100,37.22,-93.3,37.99,11.41
Guadalupe y Calvo,MX,1584366642,44,26.1,-106.97,59.27,2.73
Las Varas,MX,1584366644,87,21.17,-105.17,71.01,4.41
Xalapa,MX,1584366646,59,19.53,-96.92,62.51,2.24
Padilla,CO,1584366649,78,3.22,-76.31,75.2,3.36
Tecolutla,MX,1584366636,94,20.48,-97.02,71.6,9.08
Emilio Carranza,MX,1584366653,83,19.97,-96.61,75.65,7.56
Hong Kong,HK,1584366655,77,22.29,114.16,72.0,11.41
Estelle,US,1584366657,94,29.85,-90.11,71.01,5.99
Cosalá,MX,1584366659,97,24.41,-106.69,62.01,3.0
Santa Cruz del Norte,CU,1584366661,100,23.15,-81.92,71.6,14.12
Lomas de Sargentillo,EC,1584366663,94,-1.88,-80.08,77.0,8.05
San Diego de Los Baños,CU,1584366665,60,22.65,-83.37,78.71,12.55
Ayutla,MX,1584366668,66,20.12,-104.33,69.53,1.57
Hidalgo,MX,1584366670,75,20.5,-99.0,59.99,1.92
Tototlán,MX,1584366672,72,20.55,-102.8,64.99,1.7
Tulum,MX,1584366436,100,20.22,-87.47,79.0,5.82
Cienfuegos,CU,1584366676,78,22.15,-80.44,73.4,6.93
San Mateo del Mar,MX,1584366678,69,16.2,-95.0,81.23,33.62
Mazatán,MX,1584366680,83,14.87,-92.45,71.6,5.82
Belle Glade,US,1584366682,83,26.68,-80.67,79.0,5.82
Santo Domingo,DO,1584366546,78,18.5,-69.99,77.0,11.41
El Estor,GT,1584366708,70,15.53,-89.35,75.65,2.44
Halachó,MX,1584366710,88,20.48,-90.08,77.0,8.05
Uspantán,GT,1584366712,66,15.38,-90.83,61.43,3.33
Jamiltepec,MX,1584366714,49,16.28,-97.82,85.19,1.61
Almoloya,MX,1584366716,59,19.7,-98.4,59.09,2.04
Molango,MX,1584366718,94,20.78,-98.72,67.37,3.69
Altamira,BR,1584366721,83,-3.2,-52.21,78.8,2.24
Cabañas,CU,1584366723,100,22.98,-82.92,68.0,11.74
Ometepec,MX,1584366725,47,16.68,-98.42,86.45,1.7
Zaragoza,ES,1584366467,93,41.66,-0.88,54.0,14.99
La Gomera,GT,1584366729,94,14.08,-91.05,71.6,2.95
Hunucmá,MX,1584366731,88,21.02,-89.87,77.0,8.05
San Antonio,US,1584366616,77,29.42,-98.49,66.99,8.05
Tecpan,GT,1584366736,87,14.76,-90.99,59.0,13.87
Frontera,MX,1584366738,64,26.93,-101.45,72.0,3.0
Siquirres,CR,1584366740,88,10.1,-83.51,73.4,6.93
Concordia,AR,1584366742,88,-31.39,-58.02,68.0,8.05
Kissimmee,US,1584366744,78,28.3,-81.42,75.99,8.05
Chilapa,MX,1584366746,53,22.03,-105.23,76.91,0.85
Talpa,MX,1584366769,87,28.83,-111.63,54.0,2.17
Ahuatempan,MX,1584366771,49,18.42,-98.02,67.19,1.95
North Port,US,1584366774,100,27.04,-82.24,75.99,3.36
Nicolás Bravo,MX,1584366776,94,18.45,-88.92,71.6,3.62
Seybaplaya,MX,1584366778,88,19.65,-90.67,71.6,5.84
Florence,IT,1584366761,32,43.77,11.25,66.99,3.36
Los Pozos,VE,1584366803,55,8.45,-62.73,85.73,5.86
Plaza de Caisán,PA,1584366805,42,8.73,-82.82,86.0,12.75
Corn Island,NI,1584366807,79,12.17,-83.04,79.61,15.64
Teotitlán,MX,1584366809,62,18.13,-97.08,68.99,1.72
Acaponeta,MX,1584366812,69,22.5,-105.36,74.75,0.54
Santa Lucía Milpas Altas,GT,1584366814,87,14.58,-90.68,59.0,13.87
Antiguo Morelos,MX,1584366816,92,22.55,-99.08,71.01,1.99
Altzayanca,MX,1584366818,63,19.43,-97.78,57.11,2.62
Tlanchinol,MX,1584366820,94,20.98,-98.65,67.37,3.69
Quila,MX,1584366822,87,24.42,-107.22,62.01,1.34
Bocas del Toro,PA,1584366824,59,9.33,-82.25,69.01,18.01
Nautla,MX,1584366827,75,20.22,-96.78,75.11,0.56
Jiquipilas,MX,1584366829,82,16.67,-93.65,68.0,2.24
Rosamorada,MX,1584366831,53,22.12,-105.21,76.91,0.85
Papayal,PE,1584366833,80,-4.08,-80.74,75.47,2.62
Bayshore Gardens,US,1584366835,94,27.43,-82.59,77.0,5.82
Pital,CO,1584366837,73,2.27,-75.8,67.91,4.14
Dolores,AR,1584366839,33,-36.31,-57.68,74.03,4.5
Jagüey Grande,CU,1584366756,83,22.53,-81.13,71.6,2.24
Jaltenango,MX,1584366844,51,15.87,-92.72,77.09,4.09
Tuxpan,MX,1584366846,88,19.55,-103.4,69.8,1.41
Jalpa,MX,1584366848,76,21.63,-102.97,57.2,6.93
Tiquicheo,MX,1584366850,42,18.88,-100.73,79.97,0.34
Ciudad de Allende,MX,1584366563,100,25.28,-100.02,66.2,4.27
La Orilla,MX,1584366854,61,17.98,-102.23,81.41,2.17
Ostuacán,MX,1584366856,81,17.42,-93.3,75.65,0.67
Guane,CU,1584366859,70,22.2,-84.09,77.09,18.21
Barillas,GT,1584366861,61,15.8,-91.32,63.41,6.06
Venustiano Carranza,MX,1584366637,81,19.43,-99.1,66.2,8.05
Alpoyeca,MX,1584366865,63,17.67,-98.52,70.61,1.97
Destin,US,1584366716,88,30.39,-86.5,66.99,1.61
Aramecina,HN,1584366869,68,13.74,-87.71,78.8,1.68
San Juan Tecuaco,GT,1584366871,87,14.08,-90.26,73.4,13.87
La Trinidad,PH,1584366874,90,16.45,120.59,69.35,1.63
Callaway,US,1584366876,82,30.15,-85.57,69.01,4.7
Santa Ana,US,1584366809,81,33.75,-117.87,57.2,3.36
Pizarro,CO,1584366880,89,4.95,-77.37,76.55,4.65
Cruz Grande,MX,1584366882,88,16.73,-99.13,75.2,3.15
Santa Elena,EC,1584366884,78,-2.23,-80.85,80.6,4.7
Chihuahua,MX,1584366886,49,28.5,-106.0,55.99,1.99
Isla Aguada,MX,1584366888,78,18.78,-91.47,77.0,13.87
Cedeno,CO,1584366891,35,7.05,-72.16,89.15,2.93
Santa María del Oro,MX,1584366893,40,25.93,-105.37,64.13,2.98
Valparaíso,CL,1584366916,100,-33.04,-71.63,57.2,6.93
Cosautlán,MX,1584366918,59,19.33,-96.98,62.51,2.24
San Lorenzo,PY,1584366920,74,-25.33,-57.53,80.6,10.29
Jipijapa,EC,1584366922,88,-1.33,-80.58,78.8,1.12
Chajul,GT,1584366924,66,15.49,-91.03,61.43,3.33
Las Juntas,MX,1584366927,70,19.42,-104.7,77.81,0.87
Englewood,US,1584366744,69,39.65,-104.99,39.0,9.17
Immokalee,US,1584366931,78,26.42,-81.42,75.0,5.82
Dulce Grande,MX,1584366933,87,23.0,-102.17,51.8,6.93
Tula,RU,1584366935,61,54.2,37.61,33.35,10.47
Juchipila,MX,1584366937,59,21.42,-103.12,65.93,2.57
Ozatlán,SV,1584366939,61,13.38,-88.5,80.6,2.24
Tzintzuntzán,MX,1584366941,87,19.62,-101.58,59.0,2.57
Soto la Marina,MX,1584366943,76,23.77,-98.22,76.91,10.69
Saucillo,MX,1584366946,39,28.02,-105.28,69.35,8.19
El Sauce,NI,1584366948,88,12.89,-86.54,62.6,8.95
Key West,US,1584366863,69,24.56,-81.78,77.0,8.05
Chahuites,MX,1584366952,60,16.28,-94.18,75.11,10.22
Saint Cloud,US,1584366684,86,45.56,-94.16,33.8,3.36
Ozuluama de Mascareñas,MX,1584366956,100,21.67,-97.85,73.4,2.24
Ciudad Sabinas Hidalgo,MX,1584366958,75,26.5,-100.17,72.95,13.42
Villa de Reyes,MX,1584366961,87,21.8,-100.93,53.6,3.36
Ojuelos de Jalisco,MX,1584366963,64,21.87,-101.58,59.45,3.69
Pleasanton,US,1584366822,93,37.66,-121.87,46.0,4.7
La Ceiba,HN,1584366967,88,15.76,-86.78,78.8,2.24
Copala,MX,1584366969,63,16.65,-98.98,80.51,3.15
San Carlos,VE,1584366971,23,9.66,-68.58,97.97,3.98
Aguililla,MX,1584366974,53,18.73,-102.73,73.67,1.1
Santa Catarina de Tepehuanes,MX,1584366976,43,25.35,-105.73,60.53,3.56
Duyure,HN,1584366978,68,13.63,-86.82,68.0,7.52
San Blas,MX,1584366980,87,21.52,-105.27,51.8,5.26
Wawina,HN,1584366982,86,15.42,-84.43,77.27,3.71
Playas,EC,1584366984,72,-2.63,-80.38,80.51,2.62
Nieves,PH,1584366987,69,15.33,120.95,78.8,2.24
Rocafuerte,EC,1584366989,88,-0.92,-80.43,78.8,1.12
Stann Creek Town,BZ,1584366991,94,16.97,-88.23,75.2,10.71
Tayoltita,MX,1584366993,33,24.08,-105.93,70.61,0.83
Temax,MX,1584366995,58,21.15,-88.93,82.31,7.49
Compostela,PH,1584366997,86,7.67,126.09,68.45,2.73
Marin,US,1584366999,86,38.07,-122.73,44.6,6.93
Alubaren,HN,1584367001,68,13.8,-87.47,68.0,8.19
Diriomo,NI,1584367004,73,11.88,-86.05,77.0,6.93
Canatlán,MX,1584367006,61,24.52,-104.78,57.0,3.36
Atotonilco el Alto,MX,1584367009,71,20.55,-102.52,66.47,1.99
French Harbor,HN,1584367011,83,16.35,-86.43,78.8,9.17
Granada,ES,1584367013,35,37.25,-3.25,55.4,16.11
Sechura,PE,1584367015,79,-5.56,-80.82,76.19,6.49
Calimete,CU,1584367017,78,22.53,-80.91,73.4,6.93
Tekit,MX,1584367020,88,20.53,-89.33,77.0,8.05
Aguada de Pasajeros,CU,1584367022,78,22.39,-80.85,73.4,6.93
Daniel Flores,CR,1584367024,63,9.34,-83.67,61.43,5.28
Los Amates,GT,1584367026,82,15.27,-89.1,76.01,3.51
Urrutia,HN,1584367028,55,14.74,-87.04,74.39,4.05
San Francisco del Mar Viejo,MX,1584367030,71,16.23,-94.65,80.69,14.67
Consolación del Sur,CU,1584367032,60,22.5,-83.51,78.71,12.55
Melchor de Mencos,GT,1584367034,100,17.07,-89.15,71.01,3.44
Brownsville,US,1584367036,88,25.9,-97.5,75.0,5.82
Eagle Pass,US,1584367039,100,28.71,-100.5,68.0,11.41
Jocotán,GT,1584367041,60,14.82,-89.38,77.63,3.02
General Cepeda,MX,1584367043,82,25.38,-101.45,59.0,5.88
Puerto El Triunfo,SV,1584367045,61,13.28,-88.55,80.6,2.24
Edinburgh,GB,1584367014,57,55.95,-3.2,48.99,27.51
Bauta,CU,1584367049,100,22.98,-82.55,77.0,12.57
Zirándaro de los Chávez,MX,1584367052,48,18.45,-100.98,83.75,1.16
Máncora,PE,1584367054,100,-4.11,-81.05,62.6,11.41
Badiraguato,MX,1584367056,87,25.37,-107.52,60.8,0.43
Dzitás,MX,1584367059,56,20.85,-88.52,82.67,8.68
Valentín Gómez Farías,MX,1584367061,49,28.22,-106.58,55.99,3.0
Black River,JM,1584367063,74,18.03,-77.85,82.0,11.41
Punta de Piedra,VE,1584367065,24,7.62,-71.49,101.03,2.39
Kingsville,US,1584367067,94,27.52,-97.86,73.4,5.82
El Silencio,VE,1584367069,46,10.5,-66.92,73.99,2.24
Graciano Sánchez,MX,1584367071,83,23.92,-99.28,69.8,6.93
Escuintla,GT,1584366832,94,14.3,-90.78,71.6,1.97
Clearwater,US,1584367075,94,27.97,-82.8,75.99,5.82
Guanaja,HN,1584367078,83,16.4,-85.9,78.8,9.17
