City,Country,Date,Humidity,Lat,Lng,Max Temp,Min Temp,Wind Speed
Barcelos,PT,1584317913,93,41.54,-8.62,44.01,39.0,1.79
Arraial do Cabo,BR,1584317916,82,-22.97,-42.03,78.51,78.51,23.8
Ananas,HT,1584317918,78,19.25,-71.96,70.97,70.97,9.04
Mar del Plata,AR,1584317915,87,-38.0,-57.56,61.0,55.4,2.24
Manacapuru,BR,1584317922,83,-3.3,-60.62,80.6,80.6,3.36
Augusto Corrêa,BR,1584317924,97,-1.02,-46.63,72.34,72.34,3.13
Urubamba,PE,1584317927,41,-13.3,-72.12,60.8,60.8,11.41
Bella Vista,US,1584317929,87,36.43,-94.23,46.4,41.0,10.29
Ipixuna,BR,1584317668,94,-1.76,-48.8,75.2,75.2,5.82
Ilhabela,BR,1584317933,84,-23.78,-45.36,78.55,78.55,6.98
Puerto Maldonado,PE,1584317935,100,-12.6,-69.18,33.8,33.8,2.24
Necochea,AR,1584317889,80,-38.55,-58.74,55.99,53.01,1.99
Cidreira,BR,1584317705,91,-30.18,-50.21,75.79,75.79,8.5
Touros,BR,1584317942,94,-5.2,-35.46,75.2,75.2,19.46
Vila Velha,BR,1584317944,83,-20.33,-40.29,79.0,78.8,3.36
Saquena,PE,1584317947,86,-4.67,-73.52,78.51,78.51,2.62
Coquimbo,CL,1584317545,82,-29.95,-71.34,62.6,62.6,6.93
Rocha,UY,1584317951,85,-34.48,-54.33,56.75,56.75,3.13
Laguna,US,1584317953,66,38.42,-121.42,55.0,42.01,11.41
Ushuaia,AR,1584317699,71,-54.8,-68.3,55.4,55.4,19.46
Comodoro Rivadavia,AR,1584317886,68,-45.87,-67.5,66.2,66.2,1.12
Rawson,AR,1584317960,58,-43.3,-65.1,65.25,65.25,18.03
Boa Vista,BR,1584317963,55,2.82,-60.67,86.0,86.0,11.41
Coyhaique,CL,1584317965,63,-45.58,-72.07,60.8,60.8,5.82
Caçador,BR,1584317818,58,-26.78,-51.02,71.15,71.15,1.03
Belmonte,BR,1584317969,88,-15.86,-38.88,77.0,77.0,3.36
Vera Cruz,BR,1584317973,89,-12.63,-41.03,69.28,69.28,4.52
Maricá,BR,1584317976,83,-22.92,-42.82,82.4,77.0,1.12
Alta Floresta,BR,1584317978,96,-9.88,-56.09,72.79,72.79,3.47
Urucará,BR,1584317980,93,-2.54,-57.76,74.53,74.53,2.55
Ilo,PE,1584317982,86,-17.64,-71.34,73.02,73.02,6.98
Juiz de Fora,BR,1584317985,68,-21.76,-43.35,69.8,69.8,3.36
Huaraz,PE,1584317987,88,-9.53,-77.53,45.68,45.68,1.95
Río Gallegos,AR,1584317989,37,-51.62,-69.22,69.8,69.8,19.46
Santiago,CL,1584317991,29,-33.46,-70.65,78.8,77.0,11.41
Rio Grande,BR,1584317760,94,-32.03,-52.1,68.0,68.0,12.97
Punta Arenas,CL,1584317996,76,-53.15,-70.92,57.2,57.0,14.99
Nortelândia,BR,1584317998,93,-14.45,-56.8,74.1,74.1,2.93
Barranca,PE,1584318000,90,-10.75,-77.77,74.03,74.03,10.4
Castro,BR,1584318002,78,-24.79,-50.01,67.95,67.95,3.47
Pontes e Lacerda,BR,1584318005,83,-15.23,-59.34,76.93,76.93,1.77
Pangoa,PE,1584318007,91,-12.12,-73.0,73.6,73.6,1.81
Japura,ID,1584318009,93,-0.32,102.35,74.98,74.98,0.87
Carauari,BR,1584318011,95,-4.88,-66.9,77.25,77.25,1.68
Neuquén,AR,1584318013,31,-38.95,-68.06,73.4,73.4,3.36
Bom Jesus,BR,1584318016,92,-9.07,-44.36,73.92,73.92,2.89
São Félix do Xingu,BR,1584318018,98,-6.64,-51.99,69.84,69.84,2.26
Porto Belo,BR,1584318020,65,-27.16,-48.55,79.0,77.0,4.7
Mana,GF,1584318023,85,5.66,-53.78,74.59,74.59,3.49
Chui,UY,1584318025,71,-33.7,-53.46,64.0,64.0,6.35
Lampa,CL,1584318027,29,-33.28,-70.9,78.8,59.0,11.41
Barras,BR,1584318029,99,-4.24,-42.29,74.08,74.08,1.81
Mosquera,CO,1584317552,77,4.71,-74.23,60.8,60.8,10.29
Pailón,BO,1584318034,74,-17.65,-62.75,86.0,82.4,4.7
Hualmay,PE,1584317933,76,-11.1,-77.61,72.79,72.79,4.32
Camocim,BR,1584318038,97,-2.9,-40.84,74.95,74.95,4.38
Terenos,BR,1584318040,69,-20.44,-54.86,78.8,78.8,10.29
Miranda,CO,1584318043,69,3.25,-76.23,77.0,77.0,9.17
Cayenne,GF,1584317816,88,4.93,-52.33,77.0,77.0,2.24
Ancud,CL,1584318047,76,-41.87,-73.82,57.2,57.2,4.7
Pozo Colorado,PY,1584318050,44,-23.49,-58.8,85.59,85.59,4.59
São João da Barra,BR,1584318052,83,-21.64,-41.05,78.8,78.8,6.93
Viedma,AR,1584318054,50,-40.81,-63.0,64.56,64.56,16.96
Concordia,AR,1584317654,96,-31.39,-58.02,69.01,69.01,8.99
Icó,BR,1584318058,92,-6.4,-38.86,74.95,74.95,1.81
Venado Tuerto,AR,1584318060,61,-33.75,-61.97,67.03,67.03,5.08
Oriximiná,BR,1584318063,90,-1.77,-55.87,73.81,73.81,7.29
São Gabriel da Cachoeira,BR,1584318065,80,-0.13,-67.09,80.19,80.19,2.77
Lebu,CL,1584318067,74,-37.62,-73.65,56.95,56.95,9.91
Camaná,PE,1584318069,87,-16.62,-72.71,67.17,67.17,5.46
Cajaruro,PE,1584318072,75,-5.74,-78.43,74.62,74.62,4.52
Canutama,BR,1584318074,93,-6.53,-64.38,76.69,76.69,2.48
Sete Lagoas,BR,1584318076,60,-19.47,-44.25,75.2,73.4,3.36
Salinópolis,BR,1584318078,86,-0.61,-47.36,77.41,77.41,3.87
Mazagão,BR,1584318080,100,-0.12,-51.29,77.0,77.0,2.24
Barreirinhas,BR,1584318083,93,-2.75,-42.83,74.52,74.52,2.06
Caravelas,BR,1584318085,79,-17.71,-39.25,80.38,80.38,8.3
General Roca,AR,1584318088,31,-39.03,-67.58,73.4,73.4,3.36
Puerto Suárez,BO,1584318090,70,-18.95,-57.8,87.8,87.8,4.65
Tandil,AR,1584318092,64,-37.32,-59.13,63.0,62.01,1.99
Itarema,BR,1584318094,94,-2.92,-39.92,76.41,76.41,3.33
Amapá,BR,1584318097,99,1.0,-52.0,70.75,70.75,2.35
Aquiraz,BR,1584318099,88,-3.9,-38.39,80.6,80.01,3.36
Santiago del Estero,AR,1584318089,82,-27.8,-64.26,65.12,65.12,4.52
Lábrea,BR,1584318103,95,-7.26,-64.8,76.57,76.57,1.48
Talcahuano,CL,1584318105,67,-36.72,-73.12,60.8,60.8,13.87
Upata,VE,1584318108,77,8.01,-62.4,74.93,74.93,6.06
Muisne,EC,1584318110,94,0.6,-80.03,78.8,78.8,4.7
Uyuni,BO,1584318112,42,-20.46,-66.83,61.86,61.86,5.28
Sucúa,EC,1584318114,69,-2.47,-78.17,77.0,77.0,5.82
Coruripe,BR,1584318117,78,-10.13,-36.18,81.59,81.59,9.86
Puerto Carreño,CO,1584318119,36,6.19,-67.49,89.55,89.55,10.38
Yurimaguas,PE,1584318121,100,-5.9,-76.08,48.2,48.2,1.5
Naranjal,EC,1584318123,94,-2.67,-79.62,78.8,78.01,6.93
San Joaquin,VE,1584318125,83,10.26,-67.79,74.77,74.77,6.42
Acarí,PE,1584318128,91,-15.43,-74.62,67.64,67.64,3.04
Viloco,BO,1584318130,87,-16.95,-67.55,43.27,43.27,4.63
Constitución,CL,1584318133,86,-35.33,-72.42,53.1,53.1,7.0
Apartadó,CO,1584318135,88,7.88,-76.63,72.75,72.75,2.93
Porto Walter,BR,1584317703,82,-8.27,-72.74,78.39,78.39,2.01
Manicoré,BR,1584318139,88,-5.81,-61.3,82.4,82.4,2.24
Aripuanã,BR,1584318142,98,-9.17,-60.63,72.09,72.09,2.06
Sinnamary,GF,1584318144,77,5.38,-52.95,79.88,79.88,16.13
Arraias,BR,1584318146,91,-12.93,-46.94,70.56,70.56,2.06
Trairi,BR,1584318148,96,-3.28,-39.27,74.19,74.19,1.92
Custódia,BR,1584318151,90,-8.09,-37.64,73.54,73.54,2.08
Capinópolis,BR,1584318153,83,-18.68,-49.57,74.03,74.03,4.29
San Cristobal,VE,1584318155,65,7.77,-72.22,78.8,78.8,4.7
San Rafael,AR,1584318158,52,-34.62,-68.33,63.72,63.72,8.03
Carmo do Paranaíba,BR,1584318160,53,-19.0,-46.32,72.0,72.0,3.56
Benjamín Aceval,PY,1584318163,61,-24.97,-57.57,82.4,82.4,11.41
San Ramon,US,1584318102,71,37.78,-121.98,55.0,48.0,10.29
Sacama,EC,1584318168,65,-3.9,-79.27,77.0,77.0,9.17
Novo Aripuanã,BR,1584318171,96,-5.12,-60.38,75.06,75.06,2.68
Bariloche,AR,1584318173,51,-41.15,-71.31,62.6,62.6,5.82
Cururupu,BR,1584318175,99,-1.83,-44.87,73.98,73.98,2.26
Young,UY,1584318177,87,-32.68,-57.63,66.99,66.99,4.03
Acaraú,BR,1584317941,94,-2.89,-40.12,76.41,76.41,3.33
Itaituba,BR,1584318182,99,-4.28,-55.98,69.85,69.85,1.3
Sobral,BR,1584318184,96,-3.69,-40.35,73.71,73.71,1.5
Ayacucho,PE,1584318186,40,-13.16,-74.22,71.6,71.6,4.7
Santa Isabel Rio Negro,BR,1584318188,95,-0.41,-65.02,76.8,76.8,2.68
Caucaia,BR,1584318191,88,-3.74,-38.65,80.6,80.01,3.36
Uruguaiana,BR,1584318193,100,-29.75,-57.09,69.8,69.8,3.36
Humaitá,BR,1584318195,96,-7.51,-63.02,75.88,75.88,2.06
Boa Viagem,BR,1584318197,93,-5.13,-39.73,72.91,72.91,2.21
Iquique,CL,1584318199,64,-20.22,-70.14,73.4,73.4,13.87
Santa Quitéria,BR,1584317943,91,-4.33,-40.16,71.1,71.1,1.66
Vicuña,CL,1584318204,87,-30.03,-70.71,60.8,60.8,5.82
Vilhena,BR,1584318206,83,-12.74,-60.15,77.0,77.0,3.36
Irituia,BR,1584318208,98,-1.77,-47.44,71.69,71.69,2.35
Iquitos,PE,1584318005,83,-3.75,-73.25,82.4,82.4,3.06
Caucayá,CO,1584317659,81,-0.19,-74.78,76.86,76.86,2.06
Vallenar,CL,1584318215,91,-28.57,-70.76,58.32,58.32,3.6
San Francisco,US,1584318138,58,37.77,-122.42,55.0,48.0,13.87
Piaçabuçu,BR,1584318219,81,-10.41,-36.43,80.35,80.35,9.04
Inírida,CO,1584318221,77,3.87,-67.92,80.2,80.2,2.04
Puerto Rico,AR,1584318224,59,-26.8,-55.02,81.72,81.72,7.96
Jacareacanga,BR,1584318226,93,-6.22,-57.75,72.48,72.48,3.22
Chulumani,BO,1584318228,98,-16.41,-67.53,56.8,56.8,2.21
Baião,BR,1584318230,99,-2.79,-49.67,73.06,73.06,3.62
Jutaí,BR,1584318233,78,-5.18,-68.9,79.74,79.74,2.06
Paranavaí,BR,1584318235,54,-23.07,-52.47,84.2,84.2,3.0
Ariquemes,BR,1584318237,98,-9.91,-63.04,74.73,74.73,3.58
Fuerte Olimpo,PY,1584318239,49,-21.04,-57.87,85.17,85.17,4.5
Artigas,UY,1584318242,77,-30.4,-56.47,71.64,71.64,15.73
Correntina,BR,1584318244,88,-13.34,-44.64,71.8,71.8,1.95
Juradó,CO,1584318246,85,7.11,-77.76,78.17,78.17,3.85
Altamira,BR,1584318248,99,-3.2,-52.21,70.63,70.63,3.53
Huancavelica,PE,1584318251,86,-12.77,-74.98,38.84,38.84,2.57
San Juan,AR,1584318253,27,-31.54,-68.54,72.95,72.95,6.67
Puerto Quijarro,BO,1584318255,61,-17.78,-57.77,84.31,84.31,3.65
Presidencia Roque Sáenz Peña,AR,1584318257,83,-26.79,-60.44,74.71,74.71,7.83
Edéia,BR,1584318259,80,-17.34,-49.93,74.91,74.91,4.85
Poconé,BR,1584318262,78,-16.26,-56.62,78.93,78.93,3.22
Portel,BR,1584318264,99,-1.94,-50.82,72.48,72.48,0.96
San Antonio,US,1584318085,82,29.42,-98.49,73.4,62.01,9.17
Macusani,PE,1584318268,99,-14.08,-70.43,32.83,32.83,3.33
Santa Maria da Vitória,BR,1584318270,84,-13.39,-44.19,72.14,72.14,4.21
Ivaiporã,BR,1584318273,81,-24.25,-51.68,69.93,69.93,0.92
San Luis,AR,1584317708,56,-33.3,-66.34,65.1,65.1,20.36
Palmas,BR,1584318277,88,-10.21,-48.36,78.8,78.8,2.24
Dolores,AR,1584318279,83,-36.31,-57.68,56.03,56.03,8.1
Presidente Olegário,BR,1584318281,53,-18.42,-46.42,72.0,72.0,2.39
Pontal do Paraná,BR,1584318284,94,-25.65,-48.51,81.0,71.6,4.7
Santana do Mundaú,BR,1584318286,100,-9.17,-36.22,75.2,75.2,4.7
Cubará,CO,1584318288,55,7.0,-72.11,79.34,79.34,3.67
Lethem,GY,1584318290,51,3.38,-59.8,87.78,87.78,5.3
Barra do Bugres,BR,1584318292,93,-15.07,-57.18,75.83,75.83,2.93
Juliaca,PE,1584318011,58,-15.5,-70.13,55.4,55.4,8.05
Coracora,PE,1584318297,91,-15.03,-73.78,50.7,50.7,7.07
Imbituba,BR,1584318299,65,-28.24,-48.67,77.0,77.0,4.7
Sena Madureira,BR,1584318301,97,-9.07,-68.66,76.12,76.12,0.78
Pau Brasil,BR,1584318303,98,-15.46,-39.65,69.78,69.78,0.47
Caeté,BR,1584318306,60,-19.88,-43.67,75.2,73.4,5.82
Apatou,GF,1584318308,75,5.16,-54.35,76.24,76.24,4.97
Salta,AR,1584318014,82,-24.79,-65.41,71.6,68.0,4.7
Guarapari,BR,1584318312,83,-20.67,-40.5,79.0,78.8,3.36
Curillo,CO,1584318315,79,1.03,-75.92,77.5,77.5,0.78
Prado,BR,1584318317,79,-17.34,-39.22,80.38,80.38,8.3
Ibiapina,BR,1584318319,96,-3.92,-40.89,68.23,68.23,2.42
Villazón,BO,1584318321,73,-22.09,-65.59,54.88,54.88,15.05
Jaqué,PA,1584318324,72,7.52,-78.17,75.31,75.31,4.56
Valparaíso,CL,1584318058,87,-33.04,-71.63,64.4,59.0,8.05
Terra Santa,BR,1584318328,94,-2.1,-56.49,72.54,72.54,3.38
Carutapera,BR,1584318331,89,-1.2,-46.02,76.91,76.91,9.82
Maragogi,BR,1584318333,76,-9.01,-35.22,82.85,82.85,10.27
General Pico,AR,1584318335,47,-35.66,-63.76,67.5,67.5,5.82
Gurupá,BR,1584318337,99,-1.41,-51.64,72.77,72.77,1.72
Córdoba,AR,1584318227,100,-31.41,-64.18,60.01,57.99,4.7
Forquilhinha,BR,1584318342,88,-28.75,-49.47,74.8,74.8,7.47
Albina,SR,1584318344,85,5.5,-54.05,74.59,74.59,3.49
Martinho Campos,BR,1584318346,84,-19.33,-45.24,68.31,68.31,3.44
Niquelândia,BR,1584318348,88,-14.47,-48.46,70.43,70.43,2.01
Malbork,PL,1584318350,44,54.04,19.03,39.99,30.99,12.75
Mitú,CO,1584318353,97,1.2,-70.17,74.1,74.1,3.67
El Vigia,VE,1584318355,89,8.62,-71.65,67.03,67.03,2.33
Porto Velho,BR,1584318357,94,-8.76,-63.9,77.0,77.0,2.55
Patacamaya,BO,1584318359,87,-17.23,-67.92,47.01,47.01,7.02
Grand-Santi,GF,1584318362,59,4.25,-54.38,82.67,82.67,4.68
Paysandu,UY,1584318364,87,-32.32,-58.08,66.99,66.99,5.59
San Miguel,SV,1584318366,58,13.48,-88.18,87.8,87.8,5.82
Antofagasta,CL,1584318245,82,-23.65,-70.4,66.2,66.2,10.29
Canto do Buriti,BR,1584318370,91,-8.11,-42.94,73.8,73.8,1.57
Gilbués,BR,1584318372,87,-9.83,-45.34,74.52,74.52,3.6
Mabaruma,GY,1584318375,90,8.2,-59.78,74.05,74.05,3.09
Pedregulho,BR,1584318377,85,-20.26,-47.48,70.11,70.11,2.68
Uruçuí,BR,1584318379,91,-7.23,-44.56,76.21,76.21,1.48
Conceição do Araguaia,BR,1584318381,94,-8.26,-49.26,77.0,77.0,3.36
São Miguel do Araguaia,BR,1584318384,96,-13.28,-50.16,73.51,73.51,5.82
Caçapava do Sul,BR,1584318386,96,-30.51,-53.49,68.23,68.23,12.46
São Domingos,BR,1584318388,91,-13.4,-46.32,71.92,71.92,2.17
Sumé,BR,1584318390,88,-7.67,-36.88,73.31,73.31,8.95
Alegrete,BR,1584318216,79,-29.78,-55.79,72.79,72.79,12.91
Parnamirim,BR,1584318395,94,-5.92,-35.26,77.0,75.2,5.82
Florianópolis,BR,1584318217,65,-27.61,-48.5,79.0,69.01,4.7
Puerto Nariño,CO,1584318162,88,-3.77,-70.38,80.6,80.6,2.24
San Calixto,CO,1584318402,75,8.4,-73.21,70.93,70.93,3.56
Paragominas,BR,1584318404,99,-2.97,-47.48,70.48,70.48,1.57
Itabirito,BR,1584318406,60,-20.25,-43.8,75.2,73.4,5.82
San Ignacio,BZ,1584318408,55,17.16,-89.07,87.8,79.0,9.17
Departamento de Maldonado,UY,1584318411,72,-34.67,-54.92,64.4,63.0,8.05
Saquisilí,EC,1584318413,67,-0.83,-78.67,59.0,55.0,2.24
Orán,AR,1584318415,95,-23.13,-64.33,73.0,73.0,3.0
Ibirama,BR,1584318417,93,-27.06,-49.52,71.38,71.38,3.44
Pauini,BR,1584318419,96,-7.71,-66.98,76.73,76.73,1.21
Lima,PE,1584318239,83,-12.04,-77.03,75.2,75.2,11.41
Guaxupé,BR,1584318424,96,-21.31,-46.71,66.15,66.15,1.1
Barra do Corda,BR,1584318426,96,-5.5,-45.25,73.99,73.99,8.43
Itiruçu,BR,1584318428,97,-13.53,-40.15,65.79,65.79,3.04
Ibaté,BR,1584318431,94,-21.95,-48.0,69.8,69.8,2.24
Gualeguaychú,AR,1584318433,79,-33.01,-58.52,69.01,66.99,8.99
Ipiaú,BR,1584318435,95,-14.14,-39.73,69.21,69.21,1.14
Nieuw Nickerie,SR,1584318437,81,5.95,-56.98,79.57,79.57,14.81
Tambopata,PE,1584318440,100,-12.73,-69.18,33.8,33.8,2.24
Miracema do Tocantins,BR,1584318442,94,-9.56,-48.4,72.25,72.25,3.18
Camapuã,BR,1584318371,85,-19.53,-54.04,74.44,74.44,2.84
Rosario,AR,1584318446,93,-32.95,-60.64,68.0,62.01,2.24
Santa Helena de Goiás,BR,1584318448,81,-17.81,-50.6,74.01,74.01,2.1
Taltal,CL,1584318450,90,-25.4,-70.48,59.16,59.16,3.02
Requena,ES,1584318453,87,39.49,-1.1,59.0,50.0,5.82
Villa Carlos Paz,AR,1584318455,100,-31.42,-64.5,60.01,57.99,4.7
Jardim,BR,1584318457,72,-21.48,-56.14,78.31,78.31,3.85
Paulista,BR,1584318204,88,-7.94,-34.87,78.8,78.8,4.7
Manaus,BR,1584318462,83,-3.1,-60.02,82.4,80.6,4.7
San Miguel de Tucumán,AR,1584318467,100,-26.82,-65.22,64.4,64.4,3.36
Puerto Rondón,CO,1584318469,40,6.28,-71.1,86.74,86.74,5.26
Río Cuarto,AR,1584318471,100,-33.13,-64.35,57.2,57.2,6.93
Trelew,AR,1584318188,29,-43.25,-65.31,66.65,66.65,17.94
Vista Hermosa,MX,1584318476,31,19.52,-99.22,75.2,75.0,20.8
Bahía Solano,CO,1584318478,82,6.23,-77.4,78.21,78.21,6.73
Loncoche,CL,1584318481,67,-39.37,-72.63,68.0,60.8,6.93
Soledade,BR,1584318483,98,-28.82,-52.51,67.64,67.64,7.81
Gualeguay,AR,1584318485,94,-33.14,-59.31,65.07,65.07,3.94
Taquara,BR,1584318488,88,-29.65,-50.78,77.0,66.0,8.05
Maceió,BR,1584318293,100,-9.67,-35.74,75.2,75.2,4.7
La Santisima Trinidad,BO,1584318301,79,-14.83,-64.9,86.0,86.0,1.74
Jaguarão,BR,1584318494,74,-32.57,-53.38,66.11,66.11,7.87
Barinas,VE,1584318496,33,8.62,-70.21,91.22,91.22,4.5
Cacoal,BR,1584318499,91,-11.44,-61.45,76.33,76.33,4.36
São Francisco de Assis,BR,1584318501,91,-29.55,-55.13,71.08,71.08,8.93
Barra do Garças,BR,1584318441,86,-15.89,-52.26,73.87,73.87,1.86
Santo Tomas,PH,1584318452,65,14.11,121.14,82.99,77.0,8.05
Guayaramerín,BO,1584318509,96,-10.84,-65.36,76.37,76.37,0.63
Cabrobó,BR,1584318511,57,-8.51,-39.31,81.5,81.5,6.93
Limoeiro do Norte,BR,1584318513,92,-5.15,-38.1,76.95,76.95,5.03
Tocopilla,CL,1584318516,61,-22.09,-70.2,59.31,59.31,1.88
Piracanjuba,BR,1584318518,91,-17.3,-49.02,70.72,70.72,5.88
Copiapó,CL,1584318521,82,-27.37,-70.33,62.6,62.6,4.7
San Jose,US,1584318281,71,37.34,-121.89,55.0,48.0,4.7
Panguipulli,CL,1584318525,56,-39.63,-72.33,68.0,61.0,5.82
San Fernando del Valle de Catamarca,AR,1584318528,74,-28.47,-65.79,70.0,57.99,1.83
Tena,EC,1584318530,62,-0.98,-77.82,87.8,78.8,4.7
Distrikt Brokopondo,SR,1584318532,63,4.75,-55.17,81.9,81.9,10.83
Tabuleiro do Norte,BR,1584318535,86,-5.25,-38.13,77.49,77.49,9.95
Chapada dos Guimarães,BR,1584318537,83,-15.46,-55.75,80.6,80.6,3.36
Palmas de Monte Alto,BR,1584318539,86,-14.27,-43.16,69.21,69.21,5.12
Conceição da Barra,BR,1584318435,78,-18.59,-39.73,80.92,80.92,14.09
Coihueco,CL,1584318544,37,-36.62,-71.83,69.8,69.8,3.36
St. George's,GD,1584318549,88,12.06,-61.75,75.2,75.2,4.7
La Rioja,AR,1584318552,61,-29.41,-66.85,59.97,59.97,4.07
La Unión,PE,1584318239,45,-5.4,-80.75,85.3,85.3,17.11
Esperantinópolis,BR,1584318556,99,-4.87,-44.71,73.96,73.96,3.02
Chincha Alta,PE,1584318558,83,-13.41,-76.13,73.4,71.01,16.11
Nova Floresta,BR,1584318561,91,-6.46,-36.2,74.07,74.07,5.23
Codajás,BR,1584318563,96,-3.84,-62.06,75.72,75.72,3.67
Conde,BR,1584318565,94,-7.26,-34.91,77.0,77.0,2.24
Itupiranga,BR,1584318523,100,-5.13,-49.33,73.4,73.4,6.93
Camopi,GF,1584318570,88,3.17,-52.32,74.77,74.77,5.82
Cassilândia,BR,1584318572,81,-19.11,-51.73,74.66,74.66,3.31
George Town,MY,1584318574,94,5.41,100.34,78.8,77.0,2.82
Río Tercero,AR,1584318576,71,-32.17,-64.11,60.49,60.49,2.3
São Gabriel,BR,1584318510,82,-30.34,-54.32,72.57,72.57,12.35
Calama,CL,1584318581,34,-22.47,-68.93,66.2,66.2,14.99
San Vicente,AR,1584318584,53,-26.62,-54.13,78.1,78.1,5.28
Chilca,PE,1584318586,83,-12.52,-76.74,75.2,75.2,11.41
Valdivia,CL,1584318589,56,-39.81,-73.25,68.0,68.0,5.82
Santa Fe,AR,1584318592,86,-31.63,-60.7,70.0,68.0,1.99
Miraflores,MX,1584318594,31,19.22,-98.81,87.8,75.0,20.8
Careiro da Várzea,BR,1584318596,83,-3.2,-59.81,82.4,80.6,4.7
Chapadinha,BR,1584318599,93,-3.74,-43.36,74.73,74.73,2.17
Quixeramobim,BR,1584318601,93,-5.2,-39.29,72.91,72.91,2.21
Tucuruí,BR,1584318603,96,-3.77,-49.67,73.76,73.76,3.06
Campos dos Goytacazes,BR,1584318606,83,-21.75,-41.3,78.8,78.8,6.93
São Lourenço do Sul,BR,1584318608,88,-31.37,-51.98,69.8,68.0,5.82
Villamontes,BO,1584318610,95,-21.25,-63.5,71.74,71.74,4.5
Chimoré,BO,1584318613,68,-16.98,-65.13,83.44,83.44,2.59
Coari,BR,1584318615,92,-4.08,-63.14,77.27,77.27,0.83
Costa Rica,BR,1584318599,71,-23.42,-54.65,77.16,77.16,4.7
Vicência,BR,1584318620,88,-7.66,-35.33,78.8,78.8,4.7
La Palma,US,1584318622,48,33.85,-118.05,64.4,54.0,8.05
Mozarlândia,BR,1584318624,86,-14.74,-50.57,75.54,75.54,5.03
Boyuibe,BO,1584318627,69,-20.42,-63.28,75.2,75.2,9.17
Ayabaca,PE,1584318629,98,-4.64,-79.71,60.75,60.75,1.7
Pedasí,PA,1584318119,74,7.53,-80.03,79.03,79.03,22.06
Puerto Madryn,AR,1584318634,42,-42.77,-65.04,65.37,65.37,21.09
Parambu,BR,1584318637,92,-6.21,-40.69,73.24,73.24,3.04
Acobamba,PE,1584318639,94,-11.35,-75.66,44.51,44.51,1.77
Puerto Ayacucho,VE,1584318641,54,5.66,-67.62,83.5,83.5,2.62
San Lorenzo,PY,1584318644,61,-25.33,-57.53,82.4,82.4,11.41
Muaná,BR,1584318646,96,-1.53,-49.22,73.38,73.38,3.44
São Francisco,BR,1584318648,91,-15.95,-44.86,70.92,70.92,3.2
Calbuco,CL,1584318651,72,-41.77,-73.13,60.8,60.8,6.93
Anzoátegui,CO,1584318654,79,4.63,-75.1,72.95,72.95,6.22
Alvarães,BR,1584318656,86,-3.22,-64.8,78.12,78.12,1.95
Poções,BR,1584318659,96,-14.53,-40.37,65.52,65.52,3.89
Eucaliptus,BO,1584318662,70,-17.58,-67.52,50.52,50.52,15.12
Rio do Sul,BR,1584318664,93,-27.21,-49.64,71.38,71.38,3.44
Pisco,PE,1584318667,83,-13.7,-76.22,73.4,71.01,16.11
Cravo Norte,CO,1584318669,34,6.3,-70.2,89.96,89.96,5.64
São Caetano de Odivelas,BR,1584318672,99,-0.75,-48.02,72.82,72.82,1.23
San Carlos del Zulia,VE,1584318674,63,9.0,-71.91,81.28,81.28,4.45
Picota,PE,1584318676,100,-6.92,-76.33,62.6,62.6,3.36
Chimbarongo,CL,1584318678,31,-34.7,-71.05,80.6,75.2,5.82
Linhares,BR,1584318681,92,-19.39,-40.07,73.67,73.67,2.3
Paracuru,BR,1584318684,88,-3.41,-39.03,80.6,80.01,3.36
Coello,CO,1584318686,79,4.29,-74.9,72.95,72.95,6.22
Dagua,CO,1584318688,69,3.66,-76.69,77.0,77.0,9.17
Alenquer,BR,1584318398,94,-1.94,-54.74,77.0,77.0,4.7
Ribas do Rio Pardo,BR,1584318693,80,-20.44,-53.76,74.95,74.95,2.64
Chota,PE,1584318695,77,-6.55,-78.65,60.8,60.8,8.05
Buritis,BR,1584318481,94,-15.62,-46.42,68.11,68.11,1.7
Itacaré,BR,1584318699,88,-14.28,-39.0,78.8,78.8,3.36
Santa Rosa,PH,1584318702,65,14.31,121.11,82.99,80.01,8.05
Peruíbe,BR,1584318540,84,-24.32,-47.0,77.83,77.83,12.19
Senador José Porfírio,BR,1584318707,95,-2.59,-51.95,72.21,72.21,4.99
Quaraí,BR,1584318710,77,-30.39,-56.45,71.64,71.64,15.73
Lincoln,US,1584318712,80,40.8,-96.67,35.6,30.99,8.05
Itacarambi,BR,1584318714,89,-15.1,-44.09,71.35,71.35,2.04
Lagoa Vermelha,BR,1584318716,85,-28.21,-51.53,67.96,67.96,12.66
Veinticinco de Mayo,AR,1584318719,57,-35.43,-60.17,66.0,66.0,1.01
Punta Alta,AR,1584318722,50,-38.88,-62.07,64.26,64.26,18.07
Jaciara,BR,1584318725,86,-15.97,-54.97,73.74,73.74,0.89
Paso de Carrasco,UY,1584318728,63,-34.86,-56.05,64.4,63.0,9.17
Mineiros,BR,1584318731,86,-17.57,-52.55,70.77,70.77,2.68
Diamantino,BR,1584318512,90,-14.41,-56.45,74.71,74.71,2.71
Monte Patria,CL,1584318736,68,-30.69,-70.95,59.22,59.22,2.75
La Rioja,ES,1584318739,87,42.25,-2.5,44.6,44.01,4.7
Villarrica,PY,1584318741,49,-25.75,-56.43,85.8,85.8,8.57
Monteagudo,BO,1584318744,69,-19.82,-63.98,75.2,75.2,9.17
Pucallpa,PE,1584318561,88,-8.38,-74.55,77.0,77.0,2.24
Mendoza,AR,1584318749,49,-32.89,-68.83,69.8,69.8,5.26
City of San Pedro,PH,1584318503,65,14.35,121.02,82.99,80.01,8.05
Pergamino,AR,1584318754,78,-33.89,-60.57,66.0,62.01,1.01
Mulchén,CL,1584318756,35,-37.72,-72.23,65.52,65.52,4.47
Calamar,CO,1584318758,78,10.25,-74.91,80.6,80.6,14.99
Ipirá,BR,1584318761,78,-12.16,-39.74,76.15,76.15,10.71
Tambo,PE,1584318736,91,-14.8,-73.92,50.7,50.7,7.07
Sertanópolis,BR,1584318766,58,-23.06,-51.04,84.2,84.2,2.24
Bella Union,UY,1584318768,82,-30.28,-57.6,71.2,71.2,6.87
Corrente,BR,1584318771,93,-3.74,-43.34,74.73,74.73,2.17
Ceres,US,1584318773,76,37.59,-120.96,55.4,44.6,5.82
Areia Branca,BR,1584318776,100,-4.96,-37.14,78.8,78.8,2.24
Puerto Lleras,CO,1584318779,92,3.02,-73.4,76.05,76.05,2.17
Salto,UY,1584318781,96,-31.38,-57.97,68.0,68.0,7.0
São Filipe,CV,1584318784,71,14.9,-24.5,71.31,71.31,18.43
Corumbá,BR,1584318787,70,-19.01,-57.65,87.8,87.8,2.89
Prainha,BR,1584318789,93,-1.8,-53.48,72.03,72.03,1.99
Conchas,BR,1584318791,79,-23.02,-48.01,74.82,74.82,4.47
Agua Buena,PA,1584318793,64,7.82,-80.4,81.23,81.23,19.57
Chacabuco,AR,1584318790,88,-34.64,-60.47,61.0,61.0,4.32
Otacílio Costa,BR,1584318798,54,-27.48,-50.12,73.15,73.15,1.88
Pato Branco,BR,1584318800,65,-26.23,-52.67,69.64,69.64,2.53
Melo,UY,1584318802,69,-32.37,-54.18,66.09,66.09,12.19
Laje,BR,1584318805,82,-10.18,-40.97,70.72,70.72,9.98
Mazamari,PE,1584318707,92,-11.33,-74.53,65.01,65.01,2.82
Torres,BR,1584318810,90,-29.34,-49.73,76.01,76.01,12.3
Chulucanas,PE,1584318812,90,-5.09,-80.16,66.81,66.81,2.77
Santa Cruz do Capibaribe,BR,1584318816,90,-7.96,-36.2,74.08,74.08,5.01
Maracás,BR,1584318818,91,-13.44,-40.43,67.66,67.66,8.23
Cisneros,CO,1584318821,93,6.54,-75.09,60.8,57.99,3.36
Cabedelo,BR,1584318548,94,-6.98,-34.83,77.0,77.0,2.24
Floriano,BR,1584318827,90,-6.77,-43.02,75.92,75.92,4.61
Mercedes,AR,1584318811,95,-34.65,-59.43,68.0,62.01,6.89
Fonte Boa,BR,1584318831,84,-2.5,-66.27,76.39,76.39,2.8
Ladário,BR,1584318834,70,-19.0,-57.6,87.8,87.8,2.89
Province of Groningen,NL,1584318735,81,53.25,6.75,51.01,45.0,6.93
Tame,CO,1584318839,44,6.46,-71.73,84.47,84.47,2.55
Barra,BR,1584318844,73,-11.09,-43.14,78.1,78.1,3.6
Corinth,GR,1584318784,76,37.94,22.96,51.01,46.99,9.17
La Peca,PE,1584318849,75,-5.61,-78.44,74.62,74.62,4.52
Piripiri,BR,1584318851,97,-4.27,-41.78,74.12,74.12,2.64
Plácido de Castro,BR,1584318853,97,-10.34,-67.19,77.18,77.18,1.36
Maraã,BR,1584318856,91,-1.83,-65.37,78.01,78.01,2.3
Machalí,CL,1584318860,30,-34.18,-70.67,80.6,80.6,6.93
Eldorado,BR,1584318756,65,-23.79,-54.28,78.42,78.42,5.12
Iguatemi,BR,1584318865,71,-23.68,-54.56,77.16,77.16,4.7
Calabozo,VE,1584318868,33,8.92,-67.43,87.31,87.31,11.95
Santiago de Cao,PE,1584318871,88,-7.96,-79.24,73.4,73.4,9.17
Maués,BR,1584318874,91,-3.38,-57.72,74.34,74.34,2.35
Colquiri,BO,1584318876,91,-17.42,-67.13,44.58,44.58,9.48
Santa Maria,BR,1584318880,94,-29.68,-53.81,75.2,75.2,4.7
Carhuamayo,PE,1584318882,92,-10.92,-76.03,41.74,41.74,2.57
Tupã,BR,1584318667,82,-21.93,-50.51,74.75,74.75,3.31
Ambo,PE,1584318886,99,-10.13,-76.2,50.2,50.2,4.76
Tucumã,BR,1584318889,91,-0.18,-50.05,74.98,74.98,0.85
Macas,EC,1584318891,69,-2.32,-78.12,77.0,77.0,5.82
Olavarría,AR,1584318664,39,-36.89,-60.32,60.08,60.08,5.97
Luanda,AO,1584318896,83,-8.84,13.23,80.6,80.6,5.82
Iberia,US,1584318899,64,29.95,-91.75,78.8,73.4,4.7
San Carlos,VE,1584318901,30,9.66,-68.58,83.25,83.25,7.85
Mayor Pablo Lagerenza,PY,1584318903,35,-19.93,-60.77,87.28,87.28,4.36
Terra Roxa,BR,1584318906,89,-23.86,-50.03,68.49,68.49,2.33
Mapiripán,CO,1584318908,89,2.89,-72.13,77.09,77.09,3.42
Tres Arroyos,AR,1584318842,64,-38.37,-60.28,54.79,54.79,7.49
Tocache,PE,1584318914,95,-8.18,-76.51,68.49,68.49,2.62
Bogotá,CO,1584318893,87,4.61,-74.08,59.0,59.0,9.17
Manoel Urbano,BR,1584318920,97,-8.84,-69.26,75.74,75.74,2.24
Bujaru,BR,1584318923,94,-1.51,-48.04,75.2,75.2,6.93
Juquiá,BR,1584318925,95,-24.32,-47.63,72.01,72.01,1.48
La Macarena,CO,1584318659,82,2.18,-73.78,77.68,77.68,3.89
Tefé,BR,1584318931,82,-3.35,-64.71,78.21,78.21,2.42
Panórama,GR,1584318934,75,40.59,23.03,46.0,39.0,2.24
Paulo Afonso,BR,1584318937,69,-9.41,-38.21,78.89,78.89,9.35
Inhapim,BR,1584318941,83,-19.55,-42.12,75.2,75.2,8.05
Coronel Vivida,BR,1584318945,65,-25.98,-52.57,69.64,69.64,2.53
Abaeté,BR,1584318948,71,-19.16,-45.45,71.71,71.71,1.39
Maracaçumé,BR,1584318952,99,-2.04,-45.96,72.18,72.18,2.71
Luís Correia,BR,1584318954,97,-2.88,-41.67,74.75,74.75,3.11
Jaen,ES,1584318956,65,38.0,-3.5,57.99,55.99,9.55
Olmos,PE,1584318958,92,-5.98,-79.75,61.7,61.7,3.18
Ouro Preto do Oeste,BR,1584318960,96,-10.75,-62.22,75.38,75.38,4.65
Corbélia,BR,1584318963,47,-24.8,-53.31,80.6,80.6,3.36
Nieuw Amsterdam,SR,1584318965,65,5.88,-55.08,82.4,78.8,9.17
Francisco Sá,BR,1584318967,69,-16.48,-43.49,73.4,73.4,3.36
Santa Ana,US,1584318698,52,33.75,-117.87,64.4,55.0,9.17
Moyobamba,PE,1584318974,96,-6.05,-76.97,69.22,69.22,0.49
Bonito,BR,1584318976,71,-21.12,-56.48,76.68,76.68,2.91
Rafaela,AR,1584318979,83,-31.25,-61.49,68.0,66.0,1.01
Ponta Porã,BR,1584318733,71,-22.54,-55.73,76.14,76.14,6.85
Borba,BR,1584318985,97,-4.39,-59.59,75.45,75.45,2.3
Sisa,PE,1584318987,100,-6.62,-76.69,62.6,62.6,3.36
Ciudad Bolivar,VE,1584318989,52,8.12,-63.55,85.96,85.96,15.79
Laja,CL,1584318991,67,-37.27,-72.7,60.8,60.8,13.87
Cerqueira César,BR,1584318993,86,-23.04,-49.17,70.61,70.61,3.65
Olinda,BR,1584318996,88,-8.01,-34.86,78.8,78.8,4.7
Imaculada,BR,1584318998,92,-7.39,-37.51,71.98,71.98,5.39
Beberibe,BR,1584319004,88,-4.18,-38.13,80.6,80.6,3.36
Las Colinas,PA,1584319007,62,8.55,-80.08,86.0,77.0,12.75
Itacoatiara,BR,1584319009,94,-3.14,-58.44,75.2,75.2,2.24
Rubiataba,BR,1584319015,82,-15.16,-49.8,71.51,71.51,2.48
São Desidério,BR,1584318952,93,-12.36,-44.97,70.18,70.18,3.24
Abadiânia,BR,1584319019,94,-16.2,-48.71,66.81,66.81,2.1
Pimenta Bueno,BR,1584319021,96,-11.67,-61.19,73.81,73.81,4.97
Paraná,AR,1584319023,93,-31.73,-60.52,70.0,68.0,10.51
Eirunepé,BR,1584319025,93,-6.66,-69.87,76.17,76.17,0.76
Itaueira,BR,1584319028,92,-7.6,-43.03,74.34,74.34,2.62
Dois Vizinhos,BR,1584319030,68,-25.73,-53.06,76.19,76.19,2.21
Durazno,UY,1584318876,60,-33.41,-56.5,67.6,67.6,7.4
Curuçá,BR,1584319035,84,-0.73,-47.85,77.97,77.97,4.56
Rodrigues Alves,BR,1584319037,94,-7.74,-72.65,77.0,77.0,3.36
João Monlevade,BR,1584319039,91,-19.81,-43.17,64.72,64.72,2.51
Diego de Almagro,CL,1584319042,60,-26.37,-70.05,60.69,60.69,1.1
San Martín,AR,1584319045,49,-33.08,-68.47,69.8,69.8,10.63
Saquarema,BR,1584319047,83,-22.92,-42.51,80.6,80.6,1.12
Nísia Floresta,BR,1584319050,94,-6.09,-35.21,77.0,75.2,5.82
Nova Friburgo,BR,1584319052,94,-22.28,-42.53,69.13,69.13,3.71
Porto Murtinho,BR,1584319054,45,-21.7,-57.88,85.48,85.48,4.79
Irará,BR,1584319056,79,-12.05,-38.77,74.98,74.98,6.98
Formosa do Rio Preto,BR,1584319058,95,-11.05,-45.19,71.24,71.24,2.68
Brasília de Minas,BR,1584318790,94,-16.21,-44.43,67.78,67.78,4.56
Formosa,AR,1584319064,78,-26.18,-58.18,78.8,78.8,9.17
Orocué,CO,1584319069,38,4.79,-71.34,87.71,87.71,3.44
Rio Branco,BR,1584318788,100,-9.97,-67.81,75.2,75.2,4.7
Tutóia,BR,1584318793,95,-2.76,-42.27,75.02,75.02,2.28
Toledo,ES,1584319076,10,39.83,-4.0,48.99,48.0,17.31
Coloncito,VE,1584319078,65,8.33,-72.09,78.8,78.8,4.7
Santo Domingo,DO,1584319007,73,18.5,-69.99,80.6,75.99,6.93
Cavalcante,BR,1584319083,89,-13.8,-47.46,64.56,64.56,2.71
São Joaquim,BR,1584319085,95,-28.29,-49.93,63.27,63.27,4.5
Itapirapuã,BR,1584319091,88,-15.82,-50.61,72.75,72.75,1.5
Crateús,BR,1584319094,97,-5.18,-40.68,72.79,72.79,2.84
Manhuaçu,BR,1584319099,96,-20.26,-42.03,63.45,63.45,2.84
Pitimbu,BR,1584319102,94,-7.47,-34.81,77.0,77.0,2.24
Manaíra,BR,1584319104,92,-7.71,-38.15,72.77,72.77,7.63
Aragarças,BR,1584319106,82,-15.9,-52.25,75.7,75.7,2.98
Arica,CL,1584319109,73,-18.48,-70.3,73.4,69.8,6.93
Bonfim,BR,1584319111,53,3.08,-59.95,85.91,85.91,7.34
Terra Rica,BR,1584319113,77,-22.71,-52.62,76.33,76.33,3.29
